[
    {
        "name": "Phuket International Airport",
        "coordinates": [98.3115345,8.1104865],
        "icon": "https://render.bitstrips.com/v2/cpanel/10217328-102140752402_2-s5-132533800_29-s1-v1.png?transparent=1&palette=1&width=350",
        "images": [
            "/assets/phuket/airport_1.jpg",
            "/assets/phuket/airport_2.jpg",
            "/assets/phuket/airport_3.jpg"
        ],
        "captions": [
            "Geared up and ready to go!",
            "Total combined weight: 53 lbs",
            "Dulles International (DC)"
        ]
    },
    {
        "name": "Sky and Sea Condos",
        "coordinates": [98.3013584,7.8311951],
        "icon": "https://render.bitstrips.com/v2/cpanel/10219413-132533800_29-s1-102140752402_2-s5-v1.png?transparent=1&palette=1&width=300",
        "images": [
            "/assets/phuket/sea_and_sky_1.jpg",
            "/assets/phuket/sea_and_sky_2.jpg",
            "/assets/phuket/sea_and_sky_3.jpg"
        ],
        "captions": [
            "Pool #1",
            "Pool #2",
            "View from the balcony"
        ]
    },
    {
        "name": "The Big Bhudda",
        "coordinates": [98.3128945,7.8277395],
        "icon": "https://render.bitstrips.com/v2/cpanel/10214710-132533800_29-s1-v1.png?transparent=1&palette=1&width=300",
        "images": [
            "/assets/phuket/big_bhudda_1.jpg",
            "/assets/phuket/big_bhudda_2.jpg",
            "/assets/phuket/big_bhudda_3.jpg"
        ],
        "captions": [
            "Caption 1",
            "Caption 2",
            "Caption 3"
        ]
    },
    {
        "name": "Sky and Sea Condos",
        "coordinates": [98.3013584,7.8311951],
        "ignore": true
    },
    {
        "name": "Kata Beach",
        "coordinates": [98.298750,7.806194],
        "icon": "https://render.bitstrips.com/v2/cpanel/9669304-102140752402_2-s5-v1.png?transparent=1&palette=1&width=300",
        "images": [
            "/assets/phuket/kata_1.jpg",
            "/assets/phuket/kata_2.jpg",
            "/assets/phuket/kata_3.jpg"
        ],
        "captions": [
            "Caption 1",
            "Caption 2",
            "Caption 3"
        ]
    },
    {
        "name": "Sky and Sea Condos",
        "coordinates": [98.3013584,7.8311951],
        "ignore": true
    },
    {
        "name": "Old Town Phuket",
        "coordinates": [ 98.387904,7.884795],
        "icon": "https://render.bitstrips.com/v2/cpanel/10211966-102140752402_2-s5-132533800_29-s1-v1.png?transparent=1&palette=1&width=300",
        "images": [
            "/assets/phuket/old_town_1.jpg",
            "/assets/phuket/old_town_2.jpg",
            "/assets/phuket/old_town_3.jpg",
            "/assets/phuket/old_town_4.jpg",
            "/assets/phuket/old_town_5.jpg"
        ],
        "captions": [
            "Caption 1",
            "Caption 2",
            "Caption 3"
        ]
    },
    {
        "name": "Naka Night Market",
        "coordinates": [98.365697,7.880731],
        "icon": "https://render.bitstrips.com/v2/cpanel/9754270-132533800_29-s1-v1.png?transparent=1&palette=1&width=300",
        "images": [
            "/assets/phuket/naka_1.jpg",
            "/assets/phuket/naka_2.jpg",
            "/assets/phuket/naka_3.jpg",
            "/assets/phuket/naka_4.jpg"
        ],
        "captions": [
            "Caption 1",
            "Caption 2",
            "Caption 3"
        ]
    },
    {
        "name": "Sky and Sea Condos",
        "coordinates": [98.3013584,7.8311951],
        "ignore": true
    },
    {
        "name": "Central Phuket (Festival)",
        "coordinates": [98.367425,7.891839],
        "icon": "https://render.bitstrips.com/v2/cpanel/9176167-132533800_29-s1-v1.png?transparent=1&palette=1&width=300",
        "images": [
            "/assets/phuket/festival_1.jpg",
            "/assets/phuket/festival_2.jpg",
            "/assets/phuket/festival_3.jpg"
        ],
        "captions": [
            "Caption 1",
            "Caption 2",
            "Caption 3"
        ]
    },
    {
        "name": "Laem Hin Seafood",
        "coordinates": [98.408215,7.93509],
        "icon": "https://render.bitstrips.com/v2/cpanel/10211669-102140752402_2-s5-v1.png?transparent=1&palette=1&width=300",
        "images": [
            "/assets/phuket/laem_hin_1.jpg",
            "/assets/phuket/laem_hin_2.jpg",
            "/assets/phuket/laem_hin_3.jpg",
            "/assets/phuket/laem_hin_4.jpg",
            "/assets/phuket/laem_hin_5.jpg"
        ],
        "captions": [
            "Caption 1",
            "Caption 2",
            "Caption 3"
        ]
    },
    {
        "name": "Chillva Night Market",
        "coordinates": [98.373646,7.907278],
        "icon": "https://render.bitstrips.com/v2/cpanel/9754270-102140752402_2-s5-v1.png?transparent=1&palette=1&width=300",
        "images": [
            "/assets/phuket/chillva_1.jpg",
            "/assets/phuket/chillva_2.jpg",
            "/assets/phuket/chillva_3.jpg",
            "/assets/phuket/chillva_4.jpg",
            "/assets/phuket/chillva_5.jpg",
            "/assets/phuket/chillva_6.jpg"
        ],
        "captions": [
            "Caption 1",
            "Caption 2",
            "Caption 3"
        ]
    },
    {
        "name": "Sky and Sea Condos",
        "coordinates": [98.3013584,7.8311951],
        "ignore": true
    }
]