[
  {
    "name": "Bangkok The Finale",
    "markers": [
      {
        "name": "Suvarnabhumi Airport",
        "coordinates": [
          100.7502555,
          13.68970625
        ],
        "ignore": true
      },
      {
        "name": "Blossom Condo",
        "coordinates": [
          100.51915,
          13.706
        ],
        "captions": "Living like a local ",
        "icon": "https://sdk.bitmoji.com/render/panel/10234972-102140752402_5-s5-132533800_31-s1-v1.webp?transparent=1&amp;widht=350",
        "region": "bangkok",
        "images": [
          "assets/bangkok/blossom_1.jpg",
          "assets/bangkok/blossom_2.jpg"
        ]
      },
      {
        "name": "Conrad Bangkok",
        "coordinates": [
          100.54623,
          13.73447
        ],
        "captions": "",
        "icon": "https://sdk.bitmoji.com/render/panel/10212157-132533800_31-s1-102140752402_5-s5-v1.webp?transparent=1&amp;width=350",
        "region": "bangkok",
        "images": [
          "assets/bangkok/conrad_1.jpg",
          "assets/bangkok/conrad_5.jpg",
          "assets/bangkok/conrad_4.jpg",
          "assets/bangkok/conrad_3.jpg",
          "assets/bangkok/conrad_7.jpg"
        ]
      },
      {
        "name": "Chatuchak Plaza",
        "coordinates": [
          100.54861,
          13.80086
        ],
        "captions": "Brass shop",
        "icon": "https://sdk.bitmoji.com/render/panel/7622034-132533800_31-s1-v1.webp?transparent=1&amp;width=350",
        "region": "bangkok",
        "images": [
          "assets/bangkok/chat_1.jpg",
          "assets/bangkok/chat_2.jpg",
          "assets/bangkok/chat_3.jpg"
        ]
      },
      {
        "name": "Conrad Bangkok",
        "coordinates": [
          100.54623,
          13.73447
        ],
        "ignore": true
      },
      {
        "name": "Chu Tailor's",
        "coordinates": [
          100.54244,
          13.75638
        ],
        "captions": "",
        "icon": "https://sdk.bitmoji.com/render/panel/10219614-102140752402_5-s5-v1.webp?transparent=1&amp;width=350",
        "region": "bangkok",
        "images": [
          "assets/bangkok/chu_2.jpg",
          "assets/bangkok/chu_1.jpg"
        ]
      },
      {
        "name": "Conrad Bangkok",
        "coordinates": [
          100.54623,
          13.73447
        ],
        "ignore": true
      },
      {
        "name": "MBK Mall ",
        "coordinates": [
          100.5309592,
          13.7442011
        ],
        "captions": "",
        "icon": "https://sdk.bitmoji.com/render/panel/20053185-132533800_31-s1-v1.webp?transparent=1&amp;width=350",
        "region": "bangkok",
        "images": [
          "assets/bangkok/mbk_1.jpg",
          "assets/bangkok/mbk_2.jpg"
        ]
      },
      {
        "name": "Conrad Bangkok",
        "coordinates": [
          100.54623,
          13.73447
        ],
        "ignore": true
      },
      {
        "name": "Rajadamnern Muay Thai Stadium",
        "coordinates": [
          100.50769,
          13.75999
        ],
        "captions": "",
        "icon": "https://sdk.bitmoji.com/render/panel/10139382-102140752402_5-s5-v1.webp?transparent=1&amp;width=350",
        "region": "bangkok",
        "images": [
          "assets/bangkok/rws_2.jpg",
          "assets/bangkok/rws_3.jpg",
          "assets/bangkok/rws_1.jpg",
          "assets/bangkok/rws_4.jpg",
          "assets/bangkok/rws_5.jpg"
        ]
      },
      {
        "name": "Conrad Bangkok",
        "coordinates": [
          100.54623,
          13.73447
        ],
        "ignore": true
      },
      {
        "name": "Suvarnabhumi Airport",
        "coordinates": [
          100.7502555,
          13.68970625
        ],
        "ignore": true
      }
    ]
  },
  {
    "name": "Chiang Mai Redux",
    "markers": [
      {
        "name": "Saabay Guest House",
        "coordinates": [
          99.80175,
          19.85131
        ],
        "ignore": true
      },
      {
        "name": "The Old City Wall Inn",
        "coordinates": [
          98.995094,
          18.781139
        ],
        "captions": "",
        "icon": "https://sdk.bitmoji.com/render/panel/20078148-132533800_31-s1-v1.webp?transparent=1&amp;width=350",
        "region": "chiang_mai",
        "images": [
          "assets/chiang_mai/old_city_inn_1.jpg",
          "assets/chiang_mai/old_city_inn_2.jpg"
        ]
      },
      {
        "name": "Sunday Night Bazaar",
        "coordinates": [
          98.98631,
          18.78913
        ],
        "captions": "",
        "icon": "https://sdk.bitmoji.com/render/panel/20053185-132533800_31-s1-v1.webp?transparent=1&amp;width=350",
        "region": "chiang_mai",
        "images": [
          "assets/chiang_mai/sunday_market_1.jpg",
          "assets/chiang_mai/sunday_market_m1.mov"
        ]
      },
      {
        "name": "The Old City Wall Inn",
        "coordinates": [
          98.995094,
          18.781139
        ],
        "ignore": true
      },
      {
        "name": "Wat Chedi Luang",
        "coordinates": [
          98.986958,
          18.7869655
        ],
        "captions": "",
        "icon": "https://sdk.bitmoji.com/render/panel/20078584-132533800_31-s1-102140752402_5-s5-v1.webp?transparent=1&amp;width=350",
        "region": "chiang_mai",
        "images": [
          "assets/chiang_mai/chedi_1.jpg",
          "assets/chiang_mai/chedi_2.jpg",
          "assets/chiang_mai/chedi_3.jpg",
          "assets/chiang_mai/chedi_4.jpg"
        ]
      },
      {
        "name": "The Old City Wall Inn",
        "coordinates": [
          98.995094,
          18.781139
        ],
        "ignore": true
      },
      {
        "name": "Pakorns",
        "coordinates": [
          98.98286,
          18.77606
        ],
        "captions": "Absolutely fantastic Masasman Curry!",
        "icon": "https://sdk.bitmoji.com/render/panel/10215998-102140752402_5-s5-v1.webp?transparent=1&amp;width=350",
        "region": "chiang_mai",
        "images": [
          "assets/chiang_mai/pakorns_1.jpg"
        ]
      },
      {
        "name": "The Old City Wall Inn",
        "coordinates": [
          98.995094,
          18.781139
        ],
        "ignore": true
      },
      {
        "name": "Elephant Nature Park",
        "coordinates": [
          98.858673,
          19.2142245
        ],
        "captions": "",
        "icon": "https://sdk.bitmoji.com/render/panel/10224364-132533800_31-s1-v1.webp?transparent=1&amp;width=350",
        "region": "chiang_mai",
        "images": [
          "assets/chiang_mai/elephant_7.jpg",
          "assets/chiang_mai/elephant_3.jpg",
          "assets/chiang_mai/elephant_1.jpg",
          "assets/chiang_mai/elephant_10.jpg",
          "assets/chiang_mai/elephant_8.jpg",
          "assets/chiang_mai/elephant_9.jpg",
          "assets/chiang_mai/elephant_12.jpg",
          "assets/chiang_mai/elephant_13.jpg",
          "assets/chiang_mai/elephant_14.jpg",
          "assets/chiang_mai/elephant_16.jpg",
          "assets/chiang_mai/elephant_4.jpg",
          "assets/chiang_mai/elephant_6.jpg",
          "assets/chiang_mai/elephant_17.jpg",
          "assets/chiang_mai/elephant_5.jpg",
          "assets/chiang_mai/elephant_18.jpg"
        ]
      }
    ]
  },
  {
    "name": "Chiang Rai",
    "markers": [
      {
        "name": "Astra Sky River",
        "coordinates": [
          98.99839,
          18.77251
        ],
        "ignore": true
      },
      {
        "name": "Baan Plai Na",
        "coordinates": [
          99.51757,
          19.1978
        ],
        "captions": "Pit stop along the way to Chiang Mai. Gorgeous restraurant and greenhouse with water lily ponds",
        "icon": "https://sdk.bitmoji.com/render/panel/20085098-132533800_31-s1-102140752402_5-s5-v1.webp?transparent=1&amp;width=350",
        "region": "chiang_rai",
        "images": [
          "assets/chiang_rai/baan_1.jpg",
          "assets/chiang_rai/baan_2.jpg",
          "assets/chiang_rai/baan_4.jpg"
        ]
      },
      {
        "name": "Saabay Guest House",
        "coordinates": [
          99.80175,
          19.85131
        ],
        "captions": "Lush oasis tucked away on a quiet side street in Chiang Rai",
        "icon": "https://sdk.bitmoji.com/render/panel/10236265-132533800_31-s1-v1.webp?transparent=1&amp;width=350",
        "region": "chiang_rai",
        "images": [
          "assets/chiang_rai/airbnb_3.jpg",
          "assets/chiang_rai/airbnb_1.jpg"
        ]
      },
      {
        "name": "Chiou Fong Tea Plantation",
        "coordinates": [
          99.818276,
          20.199193
        ],
        "captions": "",
        "icon": "https://sdk.bitmoji.com/render/panel/10220545-132533800_31-s1-102140752402_5-s5-v1.webp?transparent=1&amp;width=350",
        "region": "chiang_rai",
        "images": [
          "assets/chiang_rai/tea_1.jpg",
          "assets/chiang_rai/tea_2.jpg",
          "assets/chiang_rai/tea_3.jpg",
          "assets/chiang_rai/tea_4.jpg"
        ]
      },
      {
        "name": "Wat Rong Suea Ten (Blue Temple)",
        "coordinates": [
          99.841872,
          19.923414
        ],
        "captions": "",
        "icon": "https://sdk.bitmoji.com/render/panel/10208401-132533800_31-s1-v1.webp?transparent=1&amp;width=350",
        "region": "chiang_rai",
        "images": [
          "assets/chiang_rai/blue_1.jpg",
          "assets/chiang_rai/blue_2.jpg",
          "assets/chiang_rai/blue_3.jpg",
          "assets/chiang_rai/blue_4.jpg",
          "assets/chiang_rai/blue_5.jpg",
          "assets/chiang_rai/blue_6.jpg"
        ]
      },
      {
        "name": "Saabay Guest House",
        "coordinates": [
          99.80175,
          19.85131
        ],
        "ignore": true
      },
      {
        "name": "Wat Rong Khun (White Temple)",
        "coordinates": [
          99.83181,
          19.91163
        ],
        "captions": "",
        "icon": "https://sdk.bitmoji.com/render/panel/20090206-132533800_31-s1-v1.webp?transparent=1&amp;width=350",
        "region": "chiang_rai",
        "images": [
          "assets/chiang_rai/white_1.jpg",
          "assets/chiang_rai/white_2.jpg",
          "assets/chiang_rai/white_3.jpg",
          "assets/chiang_rai/white_4.jpg",
          "assets/chiang_rai/white_5.jpg"
        ]
      }
    ]
  },
  {
    "name": "Chiang Mai",
    "markers": [
      {
        "name": "Chiang Mai International",
        "coordinates": [
          98.965265,
          18.7682315
        ],
        "captions": "",
        "icon": "https://render.bitstrips.com/v2/cpanel/10217328-102140752402_2-s5-132533800_29-s1-v1.png?transparent=1&amp;palette=1&amp;width=350",
        "region": "chiang_mai",
        "images": []
      },
      {
        "name": "Astra Sky River",
        "coordinates": [
          98.99839,
          18.77251
        ],
        "captions": "",
        "icon": "https://sdk.bitmoji.com/render/panel/20084243-102140752402_5-s5-v1.webp?transparent=1&amp;width=350",
        "region": "chiang_mai",
        "images": [
          "assets/chiang_mai/astra_1.jpg",
          "assets/chiang_mai/astra_2.jpg",
          "assets/chiang_mai/astra_3.jpg",
          "assets/chiang_mai/astra_4.jpg",
          "assets/chiang_mai/astra_5.jpg"
        ]
      },
      {
        "name": "Central Chiang Mai",
        "coordinates": [
          99.00398,
          18.81145
        ],
        "captions": "Chiang Mai Food Festival ",
        "icon": "https://sdk.bitmoji.com/render/panel/10212221-132533800_31-s1-102140752402_5-s5-v1.webp?transparent=1&amp;width=350",
        "region": "chiang_mai",
        "images": [
          "assets/chiang_mai/central_1.jpg",
          "assets/chiang_mai/central_2.jpg",
          "assets/chiang_mai/central_3.jpg"
        ]
      },
      {
        "name": "Astra Sky River",
        "coordinates": [
          98.99839,
          18.77251
        ],
        "ignore": true
      },
      {
        "name": "Wat Pha Lat",
        "coordinates": [
          98.96661,
          18.78847
        ],
        "captions": "",
        "icon": "https://sdk.bitmoji.com/render/panel/20002114-132533800_31-s1-102140752402_5-s5-v1.webp?transparent=1&amp;width=350",
        "region": "chiang_mai",
        "images": [
          "assets/chiang_mai/wat_pha_lat_1.jpg",
          "assets/chiang_mai/wat_pha_lat_2.jpg",
          "assets/chiang_mai/wat_pha_lat_3.jpg",
          "assets/chiang_mai/wat_pha_lat_4.jpg",
          "assets/chiang_mai/wat_pha_lat_5.jpg",
          "assets/chiang_mai/wat_pha_lat_6.jpg",
          "assets/chiang_mai/wat_pha_lat_7.jpg"
        ]
      },
      {
        "name": "Police Station District 5",
        "coordinates": [
          99.00253,
          18.78928
        ],
        "captions": "Paying the tourist tax",
        "icon": "https://sdk.bitmoji.com/render/panel/20084714-102140752402_5-s5-v1.webp?transparent=1&amp;width=350",
        "region": "chiang_mai",
        "images": [
          "assets/chiang_mai/police_1.jpg"
        ]
      },
      {
        "name": "Bo Sang Umbrella Village",
        "coordinates": [
          99.081961,
          18.764817
        ],
        "captions": "",
        "icon": "https://sdk.bitmoji.com/render/panel/20088216-132533800_31-s1-v1.webp?transparent=1&amp;width=350",
        "region": "chiang_mai",
        "images": [
          "assets/chiang_mai/bo_sang_1.jpg",
          "assets/chiang_mai/bo_sang_2.jpg",
          "assets/chiang_mai/bo_sang_3.jpg",
          "assets/chiang_mai/bo_sang_4.jpg",
          "assets/chiang_mai/bo_sang_6.jpg",
          "assets/chiang_mai/bo_sang_7.jpg",
          "assets/chiang_mai/bo_sang_9.jpg",
          "assets/chiang_mai/bo_sang_5.jpg",
          "assets/chiang_mai/bo_sang_8.jpg"
        ]
      }
    ]
  },
  {
    "name": "Bangkok",
    "markers": [
      {
        "name": "Suvarnabhumi Airport",
        "coordinates": [
          100.7502555,
          13.68970625
        ],
        "captions": "",
        "icon": "https://sdk.bitmoji.com/render/panel/20087551-102140752402_5-s5-v1.webp?transparent=1&amp;width=350",
        "region": "bangkok",
        "images": [
          "assets/bangkok/airport_2.jpg",
          "assets/bangkok/airport_3.jpg",
          "assets/bangkok/airport_4.jpg",
          "assets/bangkok/airport_5.jpg",
          "assets/bangkok/airport_6.jpg"
        ]
      },
      {
        "name": "St. Regis",
        "coordinates": [
          100.540184,
          13.739923
        ],
        "captions": "",
        "icon": "https://sdk.bitmoji.com/render/panel/10222897-132533800_31-s1-v1.webp?transparent=1&amp;width=350",
        "region": "bangkok",
        "images": [
          "assets/bangkok/regis_8.jpg",
          "assets/bangkok/regis_2.jpg",
          "assets/bangkok/regis_1.jpg",
          "assets/bangkok/regis_6.jpg",
          "assets/bangkok/regis_4.jpg",
          "assets/bangkok/regis_7.jpg",
          "assets/bangkok/regis_5.jpg"
        ]
      },
      {
        "name": "Maggie Choos",
        "coordinates": [
          100.518442,
          13.722892
        ],
        "captions": "",
        "icon": "https://sdk.bitmoji.com/render/panel/20090213-132533800_31-s1-102140752402_5-s5-v1.webp?transparent=1&amp;width=350",
        "region": "bangkok",
        "images": [
          "assets/bangkok/maggie_3.jpg",
          "assets/bangkok/maggie_4.jpg",
          "assets/bangkok/maggie_2.jpg",
          "assets/bangkok/maggie_1.jpg"
        ]
      },
      {
        "name": "St. Regis",
        "coordinates": [
          100.540184,
          13.739923
        ],
        "ignore": true
      },
      {
        "name": "All The Smoke Lounge",
        "coordinates": [
          100.54195,
          13.75483
        ],
        "captions": "Randomly walked into a shop and met the owner... who went to Auburn University!! What are the chances!?",
        "icon": "https://sdk.bitmoji.com/render/panel/20040692-132533800_31-s1-v1.webp?transparent=1&amp;width=350",
        "region": "bangkok",
        "images": [
          "assets/bangkok/mai_1.jpg",
          "assets/bangkok/mai_2.jpg"
        ]
      },
      {
        "name": "St. Regis",
        "coordinates": [
          100.540184,
          13.739923
        ],
        "ignore": true
      },
      {
        "name": "Don Mueang International Airport",
        "coordinates": [
          100.60397,
          13.9147915
        ],
        "captions": "",
        "icon": "https://sdk.bitmoji.com/render/panel/20067566-102140752402_5-s5-132533800_31-s1-v1.webp?transparent=1&amp;width=350",
        "region": "bangkok",
        "images": []
      }
    ]
  },
  {
    "name": "Bali",
    "markers": [
      {
        "name": "Despensar Airport",
        "coordinates": [
          115.16648950000001,
          -8.746112499999999
        ],
        "captions": "2 hours later... finally into Indonesia!",
        "icon": "https://render.bitstrips.com/v2/cpanel/10217328-102140752402_2-s5-132533800_29-s1-v1.png?transparent=1&amp;palette=1&amp;width=350",
        "region": "bali",
        "images": []
      },
      {
        "name": "Pondok Kita",
        "coordinates": [
          115.14205,
          -8.655942
        ],
        "captions": "Guesthouse in Canggu",
        "icon": "https://sdk.bitmoji.com/render/panel/20081375-132533800_31-s1-v1.webp?transparent=1&amp;width=350",
        "region": "bali",
        "images": [
          "assets/bali/gron_1.jpg",
          "assets/bali/gron_2.jpg",
          "assets/bali/gron_3.jpg"
        ]
      },
      {
        "name": "Batu Balong Beach",
        "coordinates": [
          115.130244,
          -8.659581
        ],
        "captions": "Not shown: my surf guide Pera holding me steady while we wait for the perfect wave!",
        "icon": "https://sdk.bitmoji.com/render/panel/20090589-102140752402_5-s5-v1.webp?transparent=1&amp;width=350",
        "region": "bali",
        "images": [
          "assets/bali/surf_1.jpg",
          "assets/bali/surf_2.jpg",
          "assets/bali/surf_3.jpg",
          "assets/bali/surf_4.jpg",
          "assets/bali/surf_5.jpg"
        ]
      },
      {
        "name": "Pondok Kita",
        "coordinates": [
          115.14205,
          -8.655942
        ],
        "ignore": true
      },
      {
        "name": "Dwana Ubud",
        "coordinates": [
          115.253722,
          -8.485309
        ],
        "captions": "Private villa and private pool in the jungle",
        "icon": "https://sdk.bitmoji.com/render/panel/20000963-102140752402_2-s5-132533800_29-s1-v1.webp?transparent=1&amp;width=350",
        "region": "bali",
        "images": [
          "assets/bali/dwana_1.jpg",
          "assets/bali/dwana_2.jpg",
          "assets/bali/pondok_1.jpg"
        ]
      },
      {
        "name": "Taluh Bebek Cafe",
        "coordinates": [
          115.257839,
          -8.471635
        ],
        "captions": "",
        "icon": "https://sdk.bitmoji.com/render/panel/20081647-102140752402_5-s5-132533800_31-s1-v1.webp?transparent=1&amp;scale=1",
        "region": "bali",
        "images": [
          "assets/bali/villa_1.jpg",
          "assets/bali/villa_2.jpg",
          "assets/bali/villa_3.jpg",
          "assets/bali/villa_4.jpg",
          "assets/bali/villa_5.jpg"
        ]
      },
      {
        "name": "Talagallang",
        "coordinates": [
          115.278768,
          -8.434252
        ],
        "captions": "",
        "icon": "https://sdk.bitmoji.com/render/panel/10212236-102140752402_5-s5-132533800_31-s1-v1.webp?transparent=1&amp;width=350",
        "region": "bali",
        "images": [
          "assets/bali/rice_1.jpg",
          "assets/bali/rice_2.jpg",
          "assets/bali/rice_3.jpg"
        ]
      },
      {
        "name": "Dwana Ubud",
        "coordinates": [
          115.253722,
          -8.485309
        ],
        "ignore": true
      },
      {
        "name": "Goa Gajah",
        "coordinates": [
          115.264099,
          -8.507874
        ],
        "ignore": true
      },
      {
        "name": "Let's Dive Tulamben",
        "coordinates": [
          115.591833,
          -8.276724
        ],
        "captions": "",
        "icon": "https://sdk.bitmoji.com/render/panel/20050246-102140752402_2-s5-132533800_29-s1-v1.webp?transparent=1&amp;width=350",
        "region": "bali",
        "images": [
          "assets/bali/tulamben_1.jpg",
          "assets/bali/tulamben_2.jpg",
          "assets/bali/tulamben_3.jpg",
          "assets/bali/tulamben_4.jpg",
          "assets/bali/tulamben_5.jpg",
          "assets/bali/tulamben_6.jpg",
          "assets/bali/tulamben_7.jpg",
          "assets/bali/tulamben_8.jpg",
          "assets/bali/tulamben_9.jpg",
          "assets/bali/tulamben_10.jpg",
          "assets/bali/tulamben_11.jpg",
          "assets/bali/tulamben_12.jpg",
          "assets/bali/tulamben_14.jpg",
          "assets/bali/tulamben_15.jpg",
          "assets/bali/tulamben_16.jpg"
        ]
      },
      {
        "name": "Dwana Ubud",
        "coordinates": [
          115.253722,
          -8.485309
        ],
        "ignore": true
      },
      {
        "name": "Wisata Kayu Putih",
        "coordinates": [
          115.18824,
          -8.33348
        ],
        "captions": "",
        "icon": "https://sdk.bitmoji.com/render/panel/20020408-132533800_31-s1-v1.webp?transparent=1&amp;width=350",
        "region": "bali",
        "images": [
          "assets/bali/banyan_1.jpg",
          "assets/bali/banyan_2.jpg",
          "assets/bali/banyan_3.jpg",
          "assets/bali/banyan_4.jpg",
          "assets/bali/famo_1.jpg",
          "assets/bali/famo_2.jpg",
          "assets/bali/famo_3.jpg",
          "assets/bali/famo_4.jpg",
          "assets/bali/famo_5.jpg"
        ]
      },
      {
        "name": "Ulun Danu Beratan Temple",
        "coordinates": [
          115.171471,
          -8.25862
        ],
        "captions": "",
        "icon": "https://sdk.bitmoji.com/render/panel/20003415-132533800_31-s1-102140752402_5-s5-v1.webp?transparent=1&amp;width=350",
        "region": "bali",
        "images": [
          "assets/bali/ulan_1.jpg",
          "assets/bali/ulan_2.jpg",
          "assets/bali/ulan_3.jpg",
          "assets/bali/ulan_4.jpg",
          "assets/bali/ulan_5.jpg"
        ]
      },
      {
        "name": "The Lost Cafe",
        "coordinates": [
          115.175506,
          -8.299077
        ],
        "captions": "",
        "icon": "https://sdk.bitmoji.com/render/panel/20074506-132533800_31-s1-102140752402_5-s5-v1.webp?transparent=1&amp;width=350",
        "region": "bali",
        "images": [
          "assets/bali/lost_cafe_1.jpg"
        ]
      },
      {
        "name": "Ritakala Cafe",
        "coordinates": [
          115.32154,
          -8.22051
        ],
        "captions": "",
        "icon": "https://sdk.bitmoji.com/render/panel/20052334-132533800_31-s1-102140752402_5-s5-v1.webp?transparent=1&amp;width=350",
        "region": "bali",
        "images": [
          "assets/bali/batur_1.jpg",
          "assets/bali/batur_2.jpg",
          "assets/bali/batur_3.jpg"
        ]
      },
      {
        "name": "Dwana Ubud",
        "coordinates": [
          115.253722,
          -8.485309
        ],
        "ignore": true
      },
      {
        "name": "Balistar Luwak Coffee",
        "coordinates": [
          115.263822,
          -8.510364
        ],
        "captions": "",
        "icon": "https://sdk.bitmoji.com/render/panel/20074502-102140752402_5-s5-v1.webp?transparent=1&amp;width=350",
        "region": "bali",
        "images": [
          "assets/bali/ubud_1.jpg",
          "assets/bali/ubud_2.jpg",
          "assets/bali/ubud_3.jpg"
        ]
      },
      {
        "name": "Sacred Monkey Forest",
        "coordinates": [
          115.25948,
          -8.518191
        ],
        "captions": "Monkeys are devious little creatures who should never be trusted ",
        "icon": "https://sdk.bitmoji.com/render/panel/10220061-102140752402_5-s5-v1.webp?transparent=1&amp;width=350",
        "region": "bali",
        "images": [
          "assets/bali/monkey_1.jpg",
          "assets/bali/monkey_2.jpg",
          "assets/bali/monkey_3.jpg",
          "assets/bali/monkey_4.jpg",
          "assets/bali/monkey_5.jpg",
          "assets/bali/monkey_6.jpg"
        ]
      },
      {
        "name": "Dwana Ubud",
        "coordinates": [
          115.253722,
          -8.485309
        ],
        "ignore": true
      },
      {
        "name": "Despensar Airport",
        "coordinates": [
          115.16648950000001,
          -8.746112499999999
        ],
        "ignore": true
      }
    ]
  },
  {
    "name": "Singapore",
    "markers": [
      {
        "name": "Changi Airport",
        "coordinates": [
          103.9884945,
          1.35601825
        ],
        "captions": "For those times when you want see a waterfall during your layovers",
        "icon": "https://sdk.bitmoji.com/render/panel/20006615-102140752402_2-s5-v1.webp?transparent=1&amp;width=350",
        "region": "singapore",
        "images": [
          "assets/singapore/changi_1.jpg",
          "assets/singapore/changi_2.jpg",
          "assets/singapore/changi_3.jpg",
          "assets/singapore/changi_4.jpg",
          "assets/singapore/changi_5.jpg",
          "assets/singapore/changi_6.jpg",
          "assets/singapore/changi_7.jpg"
        ]
      },
      {
        "name": "The Pod",
        "coordinates": [
          103.860678,
          1.300783
        ],
        "captions": "From private villa to being trapped in a cage... I mean pod. Welcome to Singapore! ",
        "icon": "https://sdk.bitmoji.com/render/panel/10217067-102140752402_2-s5-v1.webp?transparent=1&amp;width=350",
        "region": "singapore",
        "images": [
          "assets/singapore/pod_1.jpg"
        ]
      },
      {
        "name": "Masjid Sultan",
        "coordinates": [
          103.858991,
          1.302222
        ],
        "captions": "First day exploring around Singapore",
        "icon": "https://sdk.bitmoji.com/render/panel/10079860-132533800_29-s1-v1.webp?transparent=1&amp;scale=1",
        "region": "singapore",
        "images": [
          "assets/singapore/masjid_1.jpg",
          "assets/singapore/masjid_2.jpg",
          "assets/singapore/masjid_3.jpg",
          "assets/singapore/masjid_4.jpg"
        ]
      },
      {
        "name": "The Pod",
        "coordinates": [
          103.860678,
          1.300783
        ],
        "ignore": true
      },
      {
        "name": "Golden Mile",
        "coordinates": [
          103.864644,
          1.303086
        ],
        "captions": "Getting a taste of world-famous Hainese Chicken Rice",
        "icon": "https://sdk.bitmoji.com/render/panel/10226603-102140752402_2-s5-v1.webp?transparent=1&amp;width=350",
        "region": "singapore",
        "images": [
          "assets/singapore/chinatown_1.jpg"
        ]
      },
      {
        "name": "The Pod",
        "coordinates": [
          103.860678,
          1.300783
        ],
        "ignore": true
      },
      {
        "name": "Gardens by the Bay",
        "coordinates": [
          103.863932,
          1.282868
        ],
        "captions": "Absolutely beautiful gardens with lots of different exhibits ",
        "icon": "https://sdk.bitmoji.com/render/panel/20049506-102140752402_2-s5-132533800_29-s1-v1.webp?transparent=1&amp;width=350",
        "region": "singapore",
        "images": [
          "assets/singapore/gardens_1.jpg",
          "assets/singapore/gardens_2.jpg",
          "assets/singapore/gardens_3.jpg",
          "assets/singapore/gardens_4.jpg",
          "assets/singapore/gardens_5.jpg",
          "assets/singapore/gardens_6.jpg",
          "assets/singapore/gardens_7.jpg",
          "assets/singapore/gardens_8.jpg",
          "assets/singapore/gardens_9.jpg",
          "assets/singapore/gardens_10.jpg",
          "assets/singapore/gardens_11.jpg",
          "assets/singapore/gardens_12.jpg",
          "assets/singapore/gardens_13.jpg",
          "assets/singapore/gardens_14.jpg",
          "assets/singapore/gardens_15.jpg",
          "assets/singapore/gardens_16.jpg",
          "assets/singapore/gardens_17.jpg",
          "assets/singapore/gardens_18.jpg",
          "assets/singapore/gardens_19.jpg",
          "assets/singapore/gardens_20.jpg",
          "assets/singapore/gardens_21.jpg",
          "assets/singapore/gardens_22.jpg",
          "assets/singapore/gardens_23.jpg",
          "assets/singapore/gardens_24.jpg"
        ]
      },
      {
        "name": "The Pod",
        "coordinates": [
          103.860678,
          1.300783
        ],
        "ignore": true
      },
      {
        "name": "Marina Bay Sands",
        "coordinates": [
          103.860693,
          1.283685
        ],
        "captions": "Marina Bay Sands",
        "icon": "https://sdk.bitmoji.com/render/panel/20090344-102140752402_2-s5-132533800_29-s1-v1.webp?transparent=1&amp;width=350",
        "region": "singapore",
        "images": [
          "assets/singapore/marina_1.jpg",
          "assets/singapore/marina_2.jpg",
          "assets/singapore/marina_3.jpg",
          "assets/singapore/marina_bay_1.jpg"
        ]
      },
      {
        "name": "The Pod",
        "coordinates": [
          103.860678,
          1.300783
        ],
        "ignore": true
      },
      {
        "name": "ION Orchard",
        "coordinates": [
          103.83195025,
          1.304287125
        ],
        "captions": "Shopping",
        "icon": "https://sdk.bitmoji.com/render/panel/10234037-102140752402_2-s5-v1.webp?transparent=1&amp;width=350",
        "region": "singapore",
        "images": [
          "assets/singapore/mall_1.jpg"
        ]
      },
      {
        "name": "The Pod",
        "coordinates": [
          103.860678,
          1.300783
        ],
        "ignore": true
      },
      {
        "name": "Maxwell Food Center",
        "coordinates": [
          103.844742,
          1.280291
        ],
        "captions": "Maxwell Food Center",
        "icon": "https://sdk.bitmoji.com/render/panel/10237599-102140752402_2-s5-132533800_29-s1-v1.webp?transparent=1&amp;width=350",
        "region": "singapore",
        "images": []
      }
    ]
  },
  {
    "name": "Koh Samui",
    "markers": [
      {
        "name": "Airport",
        "coordinates": [
          100.063072,
          9.547981
        ],
        "captions": "Cozy little open-air airport",
        "icon": "https://sdk.bitmoji.com/render/panel/10214041-102140752402_5-s5-v1.webp?transparent=1&amp;width=350",
        "region": "koh_samui",
        "images": []
      },
      {
        "name": "SAII Choengmon",
        "coordinates": [
          100.083838,
          9.559925
        ],
        "captions": "Feeling a level of relaxation that has never before been achieved",
        "icon": "https://sdk.bitmoji.com/render/panel/10222908-102140752402_2-s5-132533800_29-s1-v1.webp?transparent=1&amp;width=350",
        "region": "koh_samui",
        "images": [
          "assets/koh_samui/saii_7.jpg",
          "assets/koh_samui/saii_3.jpg",
          "assets/koh_samui/saii_10.jpg",
          "assets/koh_samui/saii_8.jpg",
          "assets/koh_samui/saii_9.jpg",
          "assets/koh_samui/saii_6.jpg",
          "assets/koh_samui/saii_5.jpg",
          "assets/koh_samui/saii_1.jpg",
          "assets/koh_samui/saii_2.jpg"
        ]
      },
      {
        "name": "Pralarn Pier",
        "coordinates": [
          99.984544,
          9.58421
        ],
        "captions": "Catching the ferry to Koh Tao",
        "icon": "https://sdk.bitmoji.com/render/panel/20083342-132533800_29-s1-v1.webp?transparent=1&amp;width=350",
        "region": "koh_samui",
        "images": []
      },
      {
        "name": "SAII Choengmon",
        "coordinates": [
          100.083838,
          9.559925
        ],
        "ignore": true
      },
      {
        "name": "Nanyuan Noodles",
        "coordinates": [
          100.082256,
          9.569544
        ],
        "captions": "Enjoying duck quesadillas and mango smoothies",
        "icon": "https://sdk.bitmoji.com/render/panel/20052321-132533800_29-s1-102140752402_2-s5-v1.webp?transparent=1&amp;width=350",
        "region": "koh_samui",
        "images": [
          "assets/koh_samui/nanyuan_1.jpg"
        ]
      },
      {
        "name": "SAII Choengmon",
        "coordinates": [
          100.083838,
          9.559925
        ],
        "ignore": true
      },
      {
        "name": "Fisherman's Village",
        "coordinates": [
          100.027855,
          9.558399
        ],
        "captions": "Night market",
        "icon": "https://sdk.bitmoji.com/render/panel/20060362-102140752402_2-s5-v1.webp?transparent=1&amp;width=350",
        "region": "koh_samui",
        "images": [
          "assets/koh_samui/fishermans_1.jpg",
          "assets/koh_samui/fishermans_2.jpg"
        ]
      }
    ]
  },
  {
    "name": "Koh Tao",
    "markers": [
      {
        "name": "Charina",
        "coordinates": [
          99.830464,
          10.089049
        ],
        "captions": "Cozy ",
        "icon": "https://sdk.bitmoji.com/render/panel/20080246-102140752402_2-s5-132533800_29-s1-v1.webp?transparent=1&amp;width=350",
        "region": "koh_tao",
        "images": [
          "assets/koh_tao/charina_1.jpg"
        ]
      },
      {
        "name": "Sairee Beach",
        "coordinates": [
          99.829385,
          10.099625
        ],
        "captions": "Longboats waiting along Sairee Beach to take you on a tour around Koh Tao or just across the water to Nang Yuan",
        "icon": "https://sdk.bitmoji.com/render/panel/20088271-102140752402_2-s5-132533800_29-s1-v1.webp?transparent=1&amp;width=350",
        "region": "koh_tao",
        "images": [
          "/assets/koh_tao/sairee_1.jpg"
        ]
      },
      {
        "name": "Charina",
        "coordinates": [
          99.830464,
          10.089049
        ],
        "ignore": true
      },
      {
        "name": "Cafes",
        "coordinates": [
          99.828757,
          10.09394
        ],
        "captions": "Exploring the cafes and restaurants around Koh Tao. We found that the food overall was not as good and a bit more expensive than in Phuket - not surprising since all food needs to get shipped in!",
        "icon": "https://sdk.bitmoji.com/render/panel/20083780-102140752402_5-s5-132533800_31-s1-v1.webp?transparent=1&amp;width=350",
        "region": "koh_tao",
        "images": [
          "/assets/koh_tao/panda_1.jpg",
          "/assets/koh_tao/panda_2.jpg"
        ]
      },
      {
        "name": "Charina",
        "coordinates": [
          99.830464,
          10.089049
        ],
        "ignore": true
      },
      {
        "name": "Sai Nuan Beach",
        "coordinates": [
          99.816124,
          10.072388
        ],
        "captions": "Chasing the sunset on the motorbike  ",
        "icon": "https://sdk.bitmoji.com/render/panel/20088142-132533800_31-s1-v1.webp?transparent=1&amp;width=350",
        "region": "koh_tao",
        "images": [
          "/assets/koh_tao/sai_nuan_1.jpg"
        ]
      },
      {
        "name": "Charina",
        "coordinates": [
          99.830464,
          10.089049
        ],
        "ignore": true
      },
      {
        "name": "Koh Nang Yuan",
        "coordinates": [
          99.814075,
          10.115006
        ],
        "captions": "Day trip to Nang Yuan island on our last day, which was much needed after our scuba training turned out more exhausting than expected. The island was deserted - we only saw a handful of other people the entire time! Nang Yuan is not just one island but two islands connected by a strip of sand. At high-tide, the sandbar disappears under the water, but come low tide you're able to walk between two perfect wading beaches! ",
        "icon": "https://sdk.bitmoji.com/render/panel/20089006-102140752402_5-s5-132533800_31-s1-v1.webp?transparent=1&amp;width=350",
        "region": "koh_tao",
        "images": [
          "/assets/koh_tao/island_1.jpg",
          "/assets/koh_tao/island_2.jpg",
          "/assets/koh_tao/island_3.jpg",
          "/assets/koh_tao/island_4.jpg",
          "/assets/koh_tao/island_5.jpg",
          "/assets/koh_tao/island_6.jpg",
          "/assets/koh_tao/island_7.jpg"
        ]
      },
      {
        "name": "Charina",
        "coordinates": [
          99.830464,
          10.089049
        ],
        "ignore": true
      },
      {
        "name": "Shark Bay",
        "coordinates": [
          99.830803,
          10.063688
        ],
        "captions": "Scuba School took up most of our time and energy while we were in Koh Tao, but the sea life was so incredible that I [Kevin]  did a little solo trek down to Shark Bay. I got in the water as the sun was starting to set. I didn't expect to see anything we hadn't already seen, but was startled by a massive turtle peacefully crunching on some coral. It was unfazed by my presence and we were eventually joined by another one of his friends.",
        "icon": "https://sdk.bitmoji.com/render/panel/20033232-102140752402_2-s5-132533800_29-s1-v1.webp?transparent=1&amp;width=350",
        "region": "koh_tao",
        "images": [
          "/assets/koh_tao/shark_2.jpg",
          "/assets/koh_tao/shark_3.jpg"
        ]
      },
      {
        "name": "Charina",
        "coordinates": [
          99.830464,
          10.089049
        ],
        "ignore": true
      },
      {
        "name": "Tanote Bay",
        "coordinates": [
          99.848052,
          10.084799
        ],
        "captions": "Our first experience in the water at Koh Tao! We had no expectations going in but it ended up being the most incredible experiences of the entire trip! As we got in the water, we saw brightly colored Parrot Fish, Sea Cucumbers, coral in all shapes and sizes. The water was warm with barely any current, and we stayed out until sunset",
        "icon": "https://sdk.bitmoji.com/render/panel/20050246-102140752402_2-s5-132533800_29-s1-v1.webp?transparent=1&amp;width=350",
        "region": "koh_tao",
        "images": [
          "/assets/koh_tao/tanote_2.jpg",
          "/assets/koh_tao/tanote_1.jpg",
          "assets/koh_tao/shark_1.jpg",
          "/assets/koh_tao/tanote_3.jpg",
          "/assets/koh_tao/tanote_4.jpg",
          "/assets/koh_tao/tanote_5.jpg",
          "/assets/koh_tao/tanote_6.jpg",
          "/assets/koh_tao/tanote_7.jpg",
          "/assets/koh_tao/tanote_8.jpg",
          "/assets/koh_tao/tanote_9.jpg",
          "/assets/koh_tao/tanote_10.jpg",
          "/assets/koh_tao/tanote_11.jpg"
        ]
      }
    ]
  },
  {
    "name": "Phuket",
    "markers": [
      {
        "name": "Phuket International Airport",
        "coordinates": [
          98.3115345,
          8.1104865
        ],
        "captions": "All ready for the journey... just two bigs bags (thanks Lily and Cyrus) and a bowl full of Coq au Vin! ",
        "icon": "https://render.bitstrips.com/v2/cpanel/10217328-102140752402_2-s5-132533800_29-s1-v1.png?transparent=1&amp;palette=1&amp;width=350",
        "region": "phuket",
        "images": [
          "/assets/phuket/airport_1.jpg",
          "/assets/phuket/airport_2.jpg",
          "/assets/phuket/airport_3.jpg"
        ]
      },
      {
        "name": "Sky and Sea Condos",
        "coordinates": [
          98.3013584,
          7.8311951
        ],
        "captions": "Relaxing at our very first stop of the trip. The AirBnB had great views of the city and a pool perfect for practicing for our scuba swim test! Kevin made friends with all the local strays (cats) ",
        "icon": "https://sdk.bitmoji.com/render/panel/10225328-132533800_29-s1-102140752402_2-s5-v1.webp?transparent=1&amp;width=350",
        "region": "phuket",
        "images": [
          "/assets/phuket/sky_4.jpg",
          "/assets/phuket/sky_2.jpg",
          "/assets/phuket/salem_1.jpg",
          "/assets/phuket/sky_1.jpg",
          "/assets/phuket/sky_3.jpg"
        ]
      },
      {
        "name": "The Pad Thai Shop",
        "coordinates": [
          98.300061,
          7.831572
        ],
        "captions": "We were starving after literally two full days of traveling... the moment we arrived, we dropped off our bags and headed straight to the local pad thai shop down the street. The menu was sparse but everything on it was delicious (and cheap!)",
        "icon": "https://sdk.bitmoji.com/render/panel/10237070-102140752402_5-s5-132533800_31-s1-v1.webp?transparent=1&amp;width=350",
        "region": "phuket",
        "images": [
          "/assets/phuket/pad_thai_1.jpg",
          "/assets/phuket/pad_thai_2.jpg",
          "/assets/phuket/pad_thai_3.jpg"
        ]
      },
      {
        "name": "Sky and Sea Condos",
        "coordinates": [
          98.3013584,
          7.8311951
        ],
        "ignore": true
      },
      {
        "name": "The Big Bhudda Hike",
        "coordinates": [
          98.308232,
          7.83135
        ],
        "captions": "We were feeling adventurous and spontaneously decided to hike up to the Big Bhudda! Unfortunately, we went up with minimal research and ran into 90+ degree heat, swarms of mosquitos, and got lost in the jungle. After finally making it up, we were turned away for not being culturally sensitive and wearing appropriate attire.",
        "icon": "https://sdk.bitmoji.com/render/panel/20035433-132533800_29-s1-v1.webp?transparent=1&amp;width=350",
        "region": "phuket",
        "images": [
          "/assets/phuket/hike_5.jpg",
          "/assets/phuket/hike_2.jpg",
          "/assets/phuket/hike_1.jpg",
          "/assets/phuket/hike_3.jpg",
          "/assets/phuket/hike_4.jpg",
          "/assets/phuket/hike_6.jpg"
        ]
      },
      {
        "name": "The Big Bhudda",
        "coordinates": [
          98.3128945,
          7.8277395
        ],
        "captions": "Big Bhudda: The Return. We were finally granted entrance after a change of clothes and a ride up the mountain. The Bhudda was much more magnificent in person and we had great views of the city below. On the way down, we encountered some friendly and photogenic monkeys! This was the last positive monkey encounter...",
        "icon": "https://sdk.bitmoji.com/render/panel/20000713-102140752402_5-s5-v1.webp?transparent=1&amp;width=350",
        "region": "phuket",
        "images": [
          "/assets/phuket/bhudda_1.jpg",
          "/assets/phuket/bhudda_2.jpg",
          "/assets/phuket/bhudda_3.jpg",
          "/assets/phuket/bhudda_4.jpg",
          "/assets/phuket/bhudda_5.jpg",
          "/assets/phuket/bhudda_6.jpg"
        ]
      },
      {
        "name": "Sky and Sea Condos",
        "coordinates": [
          98.3013584,
          7.8311951
        ],
        "ignore": true
      },
      {
        "name": "Kata Beach",
        "coordinates": [
          98.29875,
          7.806194
        ],
        "captions": "A small but quaint Phuket beach. Loved the low tides and did a little snorkeling as part of our scuba training. ",
        "icon": "https://render.bitstrips.com/v2/cpanel/9669304-102140752402_2-s5-v1.png?transparent=1&amp;palette=1&amp;width=300",
        "region": "phuket",
        "images": [
          "/assets/phuket/kata_1.jpg",
          "/assets/phuket/kata_2.jpg"
        ]
      },
      {
        "name": "Sky and Sea Condos",
        "coordinates": [
          98.3013584,
          7.8311951
        ],
        "ignore": true
      },
      {
        "name": "Hog's Head",
        "coordinates": [
          98.387291,
          7.883368
        ],
        "captions": "Old Town in Phuket has it all - little cafes, shops, massage parlors. We stumbled into The Hog's Head, a knock-off Harry-Potter themed cafe in Hogsmead - this turned out to be the perfect spot to nurse some tea and get away from the heat as Kevin was beginning to feel the effects of an ill-advised hawker mango smoothie.",
        "icon": "https://sdk.bitmoji.com/render/panel/10212708-102140752402_5-s5-132533800_31-s1-v1.webp?transparent=1&amp;width=350",
        "region": "phuket",
        "images": [
          "/assets/phuket/hp_5.jpg",
          "/assets/phuket/hp_2.jpg",
          "/assets/phuket/hp_4.jpg",
          "/assets/phuket/hp_1.jpg",
          "/assets/phuket/hp_3.jpg"
        ]
      },
      {
        "name": "Old Town Phuket",
        "coordinates": [
          98.391017,
          7.885927
        ],
        "captions": "Loved Old Town area so much that we ended up coming back. Old Town is known for its architecture, which is influenced by both Chinese and Portuguese aesthetic. ",
        "icon": "https://sdk.bitmoji.com/render/panel/20085085-102140752402_5-s5-132533800_31-s1-v1.webp?transparent=1&amp;width=350",
        "region": "phuket",
        "images": [
          "/assets/phuket/old_town_9.jpg",
          "/assets/phuket/old_town_6.jpg",
          "/assets/phuket/old_town_4.jpg",
          "/assets/phuket/old_town_5.jpg",
          "/assets/phuket/old_town_2.jpg",
          "/assets/phuket/old_town_1.jpg",
          "/assets/phuket/old_town_8.jpg",
          "/assets/phuket/old_town_3.jpg",
          "/assets/phuket/old_town_7.jpg",
          "/assets/phuket/old_town_10.jpg"
        ]
      },
      {
        "name": "Sama Onsen",
        "coordinates": [
          98.395599,
          7.870509
        ],
        "captions": "When it's too hot to do anything else... it's time to hit the spa (thanks to Tahaiya for the recommendation!) This was a traditional Japanese-style Onsen, which combines massage with a relaxing soak. We loved it so much that we came twice! ",
        "icon": "https://sdk.bitmoji.com/render/panel/20051260-102140752402_2-s5-132533800_29-s1-v1.webp?transparent=1&amp;width=350",
        "region": "phuket",
        "images": [
          "/assets/phuket/onsen_1.jpg",
          "/assets/phuket/onsen_2.jpg",
          "/assets/phuket/onsen_3.jpg"
        ]
      },
      {
        "name": "Sky and Sea Condos",
        "coordinates": [
          98.3013584,
          7.8311951
        ],
        "ignore": true
      },
      {
        "name": "Avista Resort",
        "coordinates": [
          98.294872,
          7.826126
        ],
        "captions": "Turns out just because you're a 5-star resort, doesn't mean you have 5-star food... ",
        "icon": "https://sdk.bitmoji.com/render/panel/10232854-102140752402_5-s5-v1.webp?transparent=1&amp;width=350",
        "region": "phuket",
        "images": [
          "/assets/phuket/resort_1.jpg"
        ]
      },
      {
        "name": "Sky and Sea Condos",
        "coordinates": [
          98.3013584,
          7.8311951
        ],
        "ignore": true
      },
      {
        "name": "Naka Night Market",
        "coordinates": [
          98.365697,
          7.880731
        ],
        "captions": "Our first night market experience was a hit! The market was bustling with activity - live music, a huge variety of food and drinks, locals and tourists alike. We had the best Thai Coffee, fried whole crab, and savory tarts.",
        "icon": "https://render.bitstrips.com/v2/cpanel/9754270-132533800_29-s1-v1.png?transparent=1&amp;palette=1&amp;width=300",
        "region": "phuket",
        "images": [
          "/assets/phuket/naka_6.jpg",
          "/assets/phuket/naka_2.jpg",
          "/assets/phuket/naka_3.jpg",
          "/assets/phuket/naka_5.jpg",
          "/assets/phuket/naka_1.jpg",
          "/assets/phuket/naka_4.jpg"
        ]
      },
      {
        "name": "Sky and Sea Condos",
        "coordinates": [
          98.3013584,
          7.8311951
        ],
        "ignore": true
      },
      {
        "name": "Central Festival",
        "coordinates": [
          98.367425,
          7.891839
        ],
        "captions": "One of our big goals of this trip was to find some nice clothing to bring back. Though the night markets were cheap... so was the quality! Central Festival in Phuket is an absolutely massive facility - essentially two separate malls connected by sky bridge. We explored both - one felt more local while the other had more international designers.",
        "icon": "https://render.bitstrips.com/v2/cpanel/9176167-132533800_29-s1-v1.png?transparent=1&amp;palette=1&amp;width=350",
        "region": "phuket",
        "images": [
          "/assets/phuket/central_1.jpg",
          "/assets/phuket/central_2.jpg",
          "/assets/phuket/central_3.jpg",
          "/assets/phuket/central_4.jpg"
        ]
      },
      {
        "name": "Laem Hin Seafood",
        "coordinates": [
          98.408215,
          7.93509
        ],
        "captions": "One of the best hidden local spots known for its fresh \"sea-to-table\" seafood is Laem Hin. The restaurant was a huge venue sprawling across the water with live tanks filled with all sorts of edible sea life. Our favorite dish was the Black Pepper Crab - eating it reminded me of my childhood feasting on crab that Baba pain-stakingly prepared. ",
        "icon": "https://render.bitstrips.com/v2/cpanel/10211669-102140752402_2-s5-v1.png?transparent=1&amp;palette=1&amp;width=300",
        "region": "phuket",
        "images": [
          "/assets/phuket/laem_1.jpg",
          "/assets/phuket/laem_2.jpg",
          "/assets/phuket/laem_3.jpg",
          "/assets/phuket/laem_4.jpg",
          "/assets/phuket/laem_5.jpg"
        ]
      },
      {
        "name": "Chillva Night Market",
        "coordinates": [
          98.373646,
          7.907278
        ],
        "captions": "Compared to the chaos of Naka, Chillva Night Market was true to its name - CHILL. Because this is a permanent market as opposed to a weekend pop-up, the vendors, shops, and hawkers felt much more organized and established. We loved the vibe here!",
        "icon": "https://sdk.bitmoji.com/render/panel/20040693-132533800_31-s1-v1.webp?transparent=1&amp;width=350",
        "region": "phuket",
        "images": [
          "/assets/phuket/chillva_1.jpg",
          "/assets/phuket/chillva_2.jpg",
          "/assets/phuket/chillva_3.jpg"
        ]
      },
      {
        "name": "Sky and Sea Condos",
        "coordinates": [
          98.3013584,
          7.8311951
        ],
        "ignore": true
      }
    ]
  }
]