[
  {
    "name": "Singapore",
    "markers": [
      {
        "name": "Changi Airport",
        "coordinates": [
          103.9884945,
          1.35601825
        ],
        "captions": "For those times when you want see a waterfall during your layovers",
        "icon": "https://sdk.bitmoji.com/render/panel/20006615-102140752402_2-s5-v1.webp?transparent=1&amp;width=350",
        "images": [
          "assets/singapore/changi_1.jpg",
          "assets/singapore/changi_2.jpg",
          "assets/singapore/changi_3.jpg"
        ]
      },
      {
        "name": "The Pod",
        "coordinates": [
          103.860678,
          1.300783
        ],
        "captions": "From private villa to living in a window-less box... welcome to the city",
        "icon": "https://sdk.bitmoji.com/render/panel/10217067-102140752402_2-s5-v1.webp?transparent=1&amp;width=350",
        "images": [
          "assets/singapore/pod_1.jpg"
        ]
      },
      {
        "name": "Masjid Sultan",
        "coordinates": [
          103.858991,
          1.302222
        ],
        "captions": "First day exploring Little India",
        "icon": "https://sdk.bitmoji.com/render/panel/10079860-132533800_29-s1-v1.webp?transparent=1&amp;scale=1",
        "images": [
          "assets/singapore/masjid_1.jpg",
          "assets/singapore/masjid_2.jpg",
          "assets/singapore/masjid_3.jpg",
          "assets/singapore/masjid_4.jpg"
        ]
      },
      {
        "name": "The Pod",
        "coordinates": [
          103.860678,
          1.300783
        ],
        "ignore": true
      },
      {
        "name": "Golden Mile",
        "coordinates": [
          103.864644,
          1.303086
        ],
        "captions": "Hainese Chicken Rice",
        "icon": "https://sdk.bitmoji.com/render/panel/10226603-102140752402_2-s5-v1.webp?transparent=1&amp;width=350",
        "images": []
      },
      {
        "name": "The Pod",
        "coordinates": [
          103.860678,
          1.300783
        ],
        "ignore": true
      },
      {
        "name": "Gardens by the Bay",
        "coordinates": [
          103.863932,
          1.282868
        ],
        "captions": "Gardens by the Bay",
        "icon": "https://sdk.bitmoji.com/render/panel/20049506-102140752402_2-s5-132533800_29-s1-v1.webp?transparent=1&amp;width=350",
        "images": [
          "assets/singapore/gardens_1.jpg",
          "assets/singapore/gardens_2.jpg",
          "assets/singapore/gardens_3.jpg",
          "assets/singapore/gardens_4.jpg",
          "assets/singapore/gardens_5.jpg",
          "assets/singapore/gardens_6.jpg",
          "assets/singapore/gardens_7.jpg",
          "assets/singapore/gardens_8.jpg",
          "assets/singapore/gardens_9.jpg",
          "assets/singapore/gardens_10.jpg",
          "assets/singapore/gardens_11.jpg",
          "assets/singapore/gardens_12.jpg",
          "assets/singapore/gardens_13.jpg",
          "assets/singapore/gardens_14.jpg",
          "assets/singapore/gardens_15.jpg",
          "assets/singapore/gardens_16.jpg",
          "assets/singapore/gardens_17.jpg",
          "assets/singapore/gardens_18.jpg",
          "assets/singapore/gardens_19.jpg",
          "assets/singapore/gardens_20.jpg",
          "assets/singapore/gardens_21.jpg",
          "assets/singapore/gardens_22.jpg",
          "assets/singapore/gardens_23.jpg"
        ]
      },
      {
        "name": "The Pod",
        "coordinates": [
          103.860678,
          1.300783
        ],
        "ignore": true
      },
      {
        "name": "Marina Bay Sands",
        "coordinates": [
          103.860693,
          1.283685
        ],
        "captions": "Marina Bay Sands",
        "icon": "https://sdk.bitmoji.com/render/panel/20090344-102140752402_2-s5-132533800_29-s1-v1.webp?transparent=1&amp;width=350",
        "images": [
          "assets/singapore/marina_1.jpg",
          "assets/singapore/marina_2.jpg",
          "assets/singapore/marina_3.jpg"
        ]
      },
      {
        "name": "The Pod",
        "coordinates": [
          103.860678,
          1.300783
        ],
        "ignore": true
      },
      {
        "name": "ION Orchard",
        "coordinates": [
          103.83195025,
          1.304287125
        ],
        "captions": "Shopping",
        "icon": "https://sdk.bitmoji.com/render/panel/10234037-102140752402_2-s5-v1.webp?transparent=1&amp;width=350",
        "images": [
          "assets/singapore/mall_1.jpg"
        ]
      },
      {
        "name": "The Pod",
        "coordinates": [
          103.860678,
          1.300783
        ],
        "ignore": true
      },
      {
        "name": "Maxwell Food Center",
        "coordinates": [
          103.844742,
          1.280291
        ],
        "captions": "Maxwell Food Center",
        "icon": "https://sdk.bitmoji.com/render/panel/10237599-102140752402_2-s5-132533800_29-s1-v1.webp?transparent=1&amp;width=350",
        "images": []
      }
    ]
  },
  {
    "name": "Koh Samui",
    "markers": [
      {
        "name": "Airport",
        "coordinates": [
          100.063072,
          9.547981
        ],
        "captions": "The coziest airport on the plains",
        "icon": "https://render.bitstrips.com/v2/cpanel/10217328-102140752402_2-s5-132533800_29-s1-v1.png?transparent=1&amp;palette=1&amp;width=350",
        "images": []
      },
      {
        "name": "SAII Choengmon",
        "coordinates": [
          100.083838,
          9.559925
        ],
        "captions": "Feeling a level of relaxation that has never before been achieved",
        "icon": "https://sdk.bitmoji.com/render/panel/10222908-102140752402_2-s5-132533800_29-s1-v1.webp?transparent=1&amp;width=350",
        "images": [
          "assets/koh_samui/saii_7.jpg",
          "assets/koh_samui/saii_3.jpg",
          "assets/koh_samui/saii_10.jpg",
          "assets/koh_samui/saii_8.jpg",
          "assets/koh_samui/saii_9.jpg",
          "assets/koh_samui/saii_6.jpg",
          "assets/koh_samui/saii_5.jpg",
          "assets/koh_samui/saii_1.jpg",
          "assets/koh_samui/saii_2.jpg"
        ]
      },
      {
        "name": "Pralarn Pier",
        "coordinates": [
          99.984544,
          9.58421
        ],
        "captions": "Catching the ferry to Koh Tao",
        "icon": "https://sdk.bitmoji.com/render/panel/20083342-132533800_29-s1-v1.webp?transparent=1&amp;width=350",
        "images": []
      },
      {
        "name": "SAII Choengmon",
        "coordinates": [
          100.083838,
          9.559925
        ],
        "ignore": true
      },
      {
        "name": "Nanyuan Noodles",
        "coordinates": [
          100.082256,
          9.569544
        ],
        "captions": "Enjoying duck quesadillas and mango smoothies",
        "icon": "https://sdk.bitmoji.com/render/panel/20052321-132533800_29-s1-102140752402_2-s5-v1.webp?transparent=1&amp;width=350",
        "images": [
          "assets/koh_samui/nanyuan_1.jpg"
        ]
      },
      {
        "name": "SAII Choengmon",
        "coordinates": [
          100.083838,
          9.559925
        ],
        "ignore": true
      },
      {
        "name": "Fisherman's Village",
        "coordinates": [
          100.027855,
          9.558399
        ],
        "captions": "Night market",
        "icon": "https://sdk.bitmoji.com/render/panel/20060362-102140752402_2-s5-v1.webp?transparent=1&amp;width=350",
        "images": [
          "assets/koh_samui/fishermans_1.jpg",
          "assets/koh_samui/fishermans_2.jpg"
        ]
      }
    ]
  },
  {
    "name": "Koh Tao",
    "markers": [
      {
        "name": "Charina",
        "coordinates": [
          99.830464,
          10.089049
        ],
        "captions": "Our AirBnB in Koh Tao",
        "icon": "https://sdk.bitmoji.com/render/panel/20080246-102140752402_2-s5-132533800_29-s1-v1.webp?transparent=1&amp;width=350",
        "images": [
          "assets/koh_tao/charina_1.jpg"
        ]
      },
      {
        "name": "Sairee Beach",
        "coordinates": [
          99.829385,
          10.099625
        ],
        "captions": "Scuba School",
        "icon": "https://sdk.bitmoji.com/render/panel/20088271-102140752402_2-s5-132533800_29-s1-v1.webp?transparent=1&amp;width=350",
        "images": [
          "/assets/koh_tao/sairee_1.jpg"
        ]
      },
      {
        "name": "Charina",
        "coordinates": [
          99.830464,
          10.089049
        ],
        "ignore": true
      },
      {
        "name": "Cafes",
        "coordinates": [
          99.828757,
          10.09394
        ],
        "captions": "Local cafes",
        "icon": "https://sdk.bitmoji.com/render/panel/20054618-102140752402_2-s5-v1.webp?transparent=1&amp;width=350",
        "images": [
          "/assets/koh_tao/panda_1.jpg",
          "/assets/koh_tao/panda_2.jpg"
        ]
      },
      {
        "name": "Charina",
        "coordinates": [
          99.830464,
          10.089049
        ],
        "ignore": true
      },
      {
        "name": "Sai Nuan Beach",
        "coordinates": [
          99.816124,
          10.072388
        ],
        "captions": "Sunset at Sai Nuan Beach",
        "icon": "https://sdk.bitmoji.com/render/panel/20054618-102140752402_2-s5-v1.webp?transparent=1&amp;width=350",
        "images": [
          "/assets/koh_tao/sai_nuan_1.jpg"
        ]
      },
      {
        "name": "Charina",
        "coordinates": [
          99.830464,
          10.089049
        ],
        "ignore": true
      },
      {
        "name": "Koh Nang Yuan",
        "coordinates": [
          99.814075,
          10.115006
        ],
        "captions": "Exploring the famous Nang Yuan viewpoint",
        "icon": "https://sdk.bitmoji.com/render/panel/10212447-102140752402_2-s5-132533800_29-s1-v1.webp?transparent=1&amp;width=350",
        "images": [
          "/assets/koh_tao/island_1.jpg",
          "/assets/koh_tao/island_2.jpg",
          "/assets/koh_tao/island_3.jpg",
          "/assets/koh_tao/island_4.jpg",
          "/assets/koh_tao/island_5.jpg"
        ]
      },
      {
        "name": "Charina",
        "coordinates": [
          99.830464,
          10.089049
        ],
        "ignore": true
      },
      {
        "name": "Shark Bay",
        "coordinates": [
          99.830803,
          10.063688
        ],
        "captions": "Shark Bay, famous for its... turtles",
        "icon": "https://sdk.bitmoji.com/render/panel/20033232-102140752402_2-s5-132533800_29-s1-v1.webp?transparent=1&amp;width=350",
        "images": [
          "assets/koh_tao/shark_1.jpg"
        ]
      },
      {
        "name": "Charina",
        "coordinates": [
          99.830464,
          10.089049
        ],
        "ignore": true
      },
      {
        "name": "Mae Haad Pier",
        "coordinates": [
          99.823642,
          10.084211
        ],
        "captions": "",
        "icon": "https://sdk.bitmoji.com/render/panel/10212244-102140752402_2-s5-132533800_29-s1-v1.webp?transparent=1&amp;palette=1&amp;width=350",
        "images": []
      },
      {
        "name": "Charina",
        "coordinates": [
          99.830464,
          10.089049
        ],
        "ignore": true
      },
      {
        "name": "Tanote Bay",
        "coordinates": [
          99.848052,
          10.084799
        ],
        "captions": "Shallow reef snorkeling at Tanote Bay",
        "icon": "https://sdk.bitmoji.com/render/panel/20050246-102140752402_2-s5-132533800_29-s1-v1.webp?transparent=1&amp;width=350",
        "images": [
          "/assets/koh_tao/tanote_1.jpg",
          "/assets/koh_tao/tanote_2.jpg"
        ]
      }
    ]
  },
  {
    "name": "Phuket",
    "markers": [
      {
        "name": "Phuket International Airport",
        "coordinates": [
          98.3115345,
          8.1104865
        ],
        "captions": "Ready for the journey...",
        "icon": "https://render.bitstrips.com/v2/cpanel/10217328-102140752402_2-s5-132533800_29-s1-v1.png?transparent=1&amp;palette=1&amp;width=350",
        "images": [
          "/assets/phuket/airport_1.jpg",
          "/assets/phuket/airport_2.jpg",
          "/assets/phuket/airport_3.jpg"
        ]
      },
      {
        "name": "Sky and Sea Condos",
        "coordinates": [
          98.3013584,
          7.8311951
        ],
        "captions": "First stop in southeast asia, Phuket!",
        "icon": "https://sdk.bitmoji.com/render/panel/10225328-132533800_29-s1-102140752402_2-s5-v1.webp?transparent=1&amp;width=350",
        "images": [
          "/assets/phuket/sky_1.jpg",
          "/assets/phuket/sky_2.jpg",
          "/assets/phuket/sky_3.jpg",
          "/assets/phuket/sky_4.jpg",
          "/assets/phuket/salem_1.jpg"
        ]
      },
      {
        "name": "The Pad Thai Shop",
        "coordinates": [
          98.300061,
          7.831572
        ],
        "captions": "Local pad thai shop down the street - first meal of our trip!",
        "icon": "https://sdk.bitmoji.com/render/panel/10225328-132533800_29-s1-102140752402_2-s5-v1.webp?transparent=1&amp;width=350",
        "images": [
          "/assets/phuket/pad_thai_1.jpg",
          "/assets/phuket/pad_thai_2.jpg"
        ]
      },
      {
        "name": "Sky and Sea Condos",
        "coordinates": [
          98.3013584,
          7.8311951
        ],
        "ignore": true
      },
      {
        "name": "The Big Bhudda Hike",
        "coordinates": [
          98.308232,
          7.83135
        ],
        "captions": "Bushwacking up to the Big Bhudda ",
        "icon": "https://sdk.bitmoji.com/render/panel/20035433-132533800_29-s1-v1.webp?transparent=1&amp;width=350",
        "images": [
          "/assets/phuket/hike_1.jpg",
          "/assets/phuket/hike_2.jpg",
          "/assets/phuket/hike_3.jpg",
          "/assets/phuket/hike_4.jpg",
          "/assets/phuket/hike_5.jpg",
          "/assets/phuket/hike_6.jpg"
        ]
      },
      {
        "name": "The Big Bhudda",
        "coordinates": [
          98.3128945,
          7.8277395
        ],
        "captions": "Bushwacking up to the Big Bhudda. Not pictured, getting bounced at the entrance for not covering up our shoulders... ",
        "icon": "https://sdk.bitmoji.com/render/panel/20035433-132533800_29-s1-v1.webp?transparent=1&amp;width=350",
        "images": [
          "/assets/phuket/bhudda_1.jpg",
          "/assets/phuket/bhudda_2.jpg",
          "/assets/phuket/bhudda_3.jpg",
          "/assets/phuket/bhudda_4.jpg",
          "/assets/phuket/bhudda_5.jpg",
          "/assets/phuket/bhudda_6.jpg"
        ]
      },
      {
        "name": "Sky and Sea Condos",
        "coordinates": [
          98.3013584,
          7.8311951
        ],
        "ignore": true
      },
      {
        "name": "Kata Beach",
        "coordinates": [
          98.29875,
          7.806194
        ],
        "captions": "Exploring Kata beach! ",
        "icon": "https://render.bitstrips.com/v2/cpanel/9669304-102140752402_2-s5-v1.png?transparent=1&amp;palette=1&amp;width=300",
        "images": [
          "/assets/phuket/kata_1.jpg",
          "/assets/phuket/kata_2.jpg"
        ]
      },
      {
        "name": "Sky and Sea Condos",
        "coordinates": [
          98.3013584,
          7.8311951
        ],
        "ignore": true
      },
      {
        "name": "Hog's Head",
        "coordinates": [
          98.387291,
          7.883368
        ],
        "captions": "Straight outta Hogsmead! ",
        "icon": "https://render.bitstrips.com/v2/cpanel/9669304-102140752402_2-s5-v1.png?transparent=1&amp;palette=1&amp;width=300",
        "images": [
          "/assets/phuket/hp_1.jpg",
          "/assets/phuket/hp_2.jpg",
          "/assets/phuket/hp_3.jpg",
          "/assets/phuket/hp_4.jpg",
          "/assets/phuket/hp_5.jpg"
        ]
      },
      {
        "name": "Old Town Phuket",
        "coordinates": [
          98.391017,
          7.885927
        ],
        "captions": "Shopping in Old Town ",
        "icon": "https://sdk.bitmoji.com/render/panel/20051260-102140752402_2-s5-132533800_29-s1-v1.webp?transparent=1&amp;width=350",
        "images": [
          "/assets/phuket/old_town_1.jpg",
          "/assets/phuket/old_town_2.jpg",
          "/assets/phuket/old_town_3.jpg",
          "/assets/phuket/old_town_4.jpg",
          "/assets/phuket/old_town_5.jpg",
          "/assets/phuket/old_town_6.jpg",
          "/assets/phuket/old_town_7.jpg",
          "/assets/phuket/old_town_8.jpg",
          "/assets/phuket/old_town_9.jpg",
          "/assets/phuket/old_town_10.jpg"
        ]
      },
      {
        "name": "Sama Onsen",
        "coordinates": [
          98.395599,
          7.870509
        ],
        "captions": "Japanese spa day",
        "icon": "https://render.bitstrips.com/v2/cpanel/9669304-102140752402_2-s5-v1.png?transparent=1&amp;palette=1&amp;width=300",
        "images": [
          "/assets/phuket/onsen_1.jpg",
          "/assets/phuket/onsen_2.jpg",
          "/assets/phuket/onsen_3.jpg"
        ]
      },
      {
        "name": "Sky and Sea Condos",
        "coordinates": [
          98.3013584,
          7.8311951
        ],
        "ignore": true
      },
      {
        "name": "Avista",
        "coordinates": [
          98.294872,
          7.826126
        ],
        "captions": "Avista resorts",
        "icon": "https://render.bitstrips.com/v2/cpanel/9754270-132533800_29-s1-v1.png?transparent=1&amp;palette=1&amp;width=300",
        "images": [
          "/assets/phuket/resort_1.jpg"
        ]
      },
      {
        "name": "Sky and Sea Condos",
        "coordinates": [
          98.3013584,
          7.8311951
        ],
        "ignore": true
      },
      {
        "name": "Naka Night Market",
        "coordinates": [
          98.365697,
          7.880731
        ],
        "captions": "Naka Night Market",
        "icon": "https://render.bitstrips.com/v2/cpanel/9754270-132533800_29-s1-v1.png?transparent=1&amp;palette=1&amp;width=300",
        "images": [
          "/assets/phuket/naka_1.jpg",
          "/assets/phuket/naka_2.jpg",
          "/assets/phuket/naka_3.jpg",
          "/assets/phuket/naka_4.jpg",
          "/assets/phuket/naka_5.jpg",
          "/assets/phuket/naka_6.jpg"
        ]
      },
      {
        "name": "Sky and Sea Condos",
        "coordinates": [
          98.3013584,
          7.8311951
        ],
        "ignore": true
      },
      {
        "name": "Central Phuket (Festival)",
        "coordinates": [
          98.367425,
          7.891839
        ],
        "captions": "huge shopping mall",
        "icon": "https://render.bitstrips.com/v2/cpanel/9176167-132533800_29-s1-v1.png?transparent=1&amp;palette=1&amp;width=300",
        "images": []
      },
      {
        "name": "Laem Hin Seafood",
        "coordinates": [
          98.408215,
          7.93509
        ],
        "captions": "Enjoying sights and seafood locals at Laem Hin",
        "icon": "https://render.bitstrips.com/v2/cpanel/10211669-102140752402_2-s5-v1.png?transparent=1&amp;palette=1&amp;width=300",
        "images": [
          "/assets/phuket/laem_1.jpg",
          "/assets/phuket/laem_2.jpg",
          "/assets/phuket/laem_3.jpg",
          "/assets/phuket/laem_4.jpg",
          "/assets/phuket/laem_5.jpg"
        ]
      },
      {
        "name": "Chillva Night Market",
        "coordinates": [
          98.373646,
          7.907278
        ],
        "captions": "chillva night market",
        "icon": "https://sdk.bitmoji.com/render/panel/20040693-102140752402_2-s5-v1.webp?transparent=1&amp;width=350",
        "images": [
          "/assets/phuket/chillva_1.jpg",
          "/assets/phuket/chillva_2.jpg",
          "/assets/phuket/chillva_3.jpg"
        ]
      },
      {
        "name": "Sky and Sea Condos",
        "coordinates": [
          98.3013584,
          7.8311951
        ],
        "ignore": true
      }
    ]
  }
]